[
  {
    "name": "태광",
    "seq": "51",
    "Golpang_code": "92",
    "address": "경기도 용인시 기흥구 상하동",
    "lat": 37.284,
    "lng": 127.103
  },
  {
    "name": "세현",
    "seq": "114055",
    "Golpang_code": "158",
    "address": "경기도 용인시 처인구 이동읍 백자로 450",
    "lat": 37.199742,
    "lng": 127.340926
  },
  {
    "name": "윈체스트",
    "seq": "167",
    "Golpang_code": "74",
    "address": "경기도 용인시 처인구 양지면 남평로 112",
    "lat": 37.230745,
    "lng": 127.284542
  },
  {
    "name": "이글몬트",
    "seq": "114312",
    "Golpang_code": "167",
    "address": "경기도 안성시 대덕면 신창길 207",
    "lat": 37.006053,
    "lng": 127.279595
  },
  {
    "name": "수원",
    "seq": "176",
    "Golpang_code": "50",
    "address": "경기도 용인시 기흥구 중부대로 242",
    "lat": 37.248329,
    "lng": 127.105351
  },
  {
    "name": "자유",
    "seq": "86",
    "address": "경기도 화성시 정남면 자유로 101",
    "lat": 37.147305,
    "lng": 126.961497
  },
  {
    "name": "블루헤런",
    "seq": "207",
    "address": "경기도 여주시 북내면 운촌리 산 16-1",
    "lat": 37.319846,
    "lng": 127.616278
  },
  {
    "name": "H1",
    "seq": "261",
    "address": "경기도 이천시 백사면 도립리 산 67-3",
    "lat": 37.321615,
    "lng": 127.493383
  },
  {
    "name": "신라",
    "seq": "167",
    "Golpang_code": "53",
    "address": "경기도 여주시 점동면 덕평로 1056",
    "lat": 37.219174,
    "lng": 127.629151
  },
  {
    "name": "골프존H",
    "seq": "386",
    "Golpang_code": "6",
    "address": "경기도 용인시 처인구 양지면 평창로 489",
    "lat": 37.220569,
    "lng": 127.310863
  },
  {
    "name": "레싸",
    "seq": "244",
    "Golpang_code": "27",
    "address": "경기도 여주시 가남읍 본두로 55",
    "lat": 37.257034,
    "lng": 127.544403
  },
  {
    "name": "중부",
    "seq": "74",
    "address": "경기도 이천시 마장면 장암리 산48-3",
    "lat": 37.226806,
    "lng": 127.450452
  },
  {
    "name": "파인크리",
    "seq": "39",
    "Golpang_code": "93",
    "address": "경기도 안성시 양성면 안성판로 1650",
    "lat": 37.062348,
    "lng": 127.287444
  },
  {
    "name": "코리아",
    "seq": "58",
    "Golpang_code": "91",
    "address": "경기도 용인시 처인구 양지면 양지로 971",
    "lat": 37.231342,
    "lng": 127.296364
  },
  {
    "name": "리베라",
    "seq": "235",
    "Golpang_code": "31",
    "address": "경기도 광주시 도척면 도척로 278",
    "lat": 37.295182,
    "lng": 127.281476
  },
  {
    "name": "골드",
    "seq": "307",
    "Golpang_code": "5",
    "address": "경기도 용인시 처인구 양지면 대대리 산6",
    "lat": 37.227135,
    "lng": 127.319456
  },
  {
    "name": "화성상록",
    "seq": "8",
    "Golpang_code": "104",
    "address": "경기도 화성시 팔탄면 해창리 산 41-1",
    "lat": 37.113038,
    "lng": 126.973897
  },
  {
    "name": "은화삼",
    "seq": "99",
    "Golpang_code": "75",
    "address": "경기도 안성시 미양면 구수리 산10-1",
    "lat": 37.063443,
    "lng": 127.262489
  },
  {
    "name": "해솔리아",
    "seq": "442",
    "Golpang_code": "100",
    "address": "경기도 이천시 마장면 관리길 205",
    "lat": 37.245273,
    "lng": 127.469244
  },
  {
    "name": "양지파인",
    "seq": "141",
    "Golpang_code": "66",
    "address": "경기도 용인시 처인구 양지면 평창로 197",
    "lat": 37.219439,
    "lng": 127.309114
  },
  {
    "name": "한원",
    "seq": "19",
    "Golpang_code": "97",
    "address": "경기도 용인시 처인구 양지면 남곡리 산19",
    "lat": 37.214789,
    "lng": 127.314289
  },
  {
    "name": "플라자용인",
    "seq": "30",
    "Golpang_code": "95",
    "address": "경기도 용인시 기흥구 중부대로 193",
    "lat": 37.244074,
    "lng": 127.104104
  },
  {
    "name": "한림용인",
    "seq": "240",
    "Golpang_code": "29",
    "address": "경기도 용인시 처인구 이동읍 묘봉로 403",
    "lat": 37.206257,
    "lng": 127.351372
  },
  {
    "name": "포웰",
    "seq": "113869",
    "Golpang_code": "141",
    "address": "경기도 여주시 가남읍 정미로 95",
    "lat": 37.273685,
    "lng": 127.566201
  },
  {
    "name": "발리오스",
    "seq": "224",
    "Golpang_code": "36",
    "address": "경기도 이천시 백사면 석재리 산 1-1",
    "lat": 37.340884,
    "lng": 127.503728
  },
  {
    "name": "더크로스비",
    "seq": "114051",
    "Golpang_code": "156",
    "address": "경기도 여주시 가남읍 태평리 산 59",
    "lat": 37.277902,
    "lng": 127.554808
  },
  {
    "name": "써닝포인트",
    "seq": "441",
    "Golpang_code": "56",
    "address": "경기도 여주시 가남읍 은봉로 181",
    "lat": 37.280705,
    "lng": 127.541236
  },
  {
    "name": "금강",
    "seq": "292",
    "Golpang_code": "56",
    "address": "경기도 용인시 처인구 양지면 금강로 60",
    "lat": 37.228156,
    "lng": 127.311317
  },
  {
    "name": "남서울",
    "seq": "282",
    "Golpang_code": "15",
    "address": "경기도 성남시 분당구 남서울로 36",
    "lat": 37.358614,
    "lng": 127.121181
  },
  {
    "name": "로제비앙",
    "seq": "114145",
    "Golpang_code": "40",
    "address": "경기도 광주시 곤지암읍 오향길 180",
    "lat": 37.377783256,
    "lng": 127.3723989167
  },
   {
    "name": "감곡",
    "seq": "114092",
    "Golpang_code": "87",
    "address": "충청북도 음성군 감곡면 오갑길 195",
    "lat": 36.954305,
    "lng": 127.524657
  },
  {
    "name": "떼제베",
    "seq": "252",
    "Golpang_code": "71",
    "address": "충청북도 청주시 흥덕구 옥산면 동림2길 149",
    "lat": 36.668709,
    "lng": 127.375162
  },
  {
    "name": "골프존화랑",
    "seq": "385",
    "Golpang_code": "52",
    "address": "충청북도 진천군 문백면 농다리로 809",
    "lat": 36.885106,
    "lng": 127.424134
  },
  {
    "name": "코스카",
    "seq": "420",
    "Golpang_code": "51",
    "address": "충청북도 음성군 음성읍 동음로 318",
    "lat": 36.944466,
    "lng": 127.675482
  },
  {
    "name": "진양밸리",
    "seq": "71",
    "Golpang_code": "47",
    "address": "충청북도 음성군 삼성면 금일로 1195",
    "lat": 36.920224,
    "lng": 127.601805
  },
  {
    "name": "아난티중앙",
    "seq": "73",
    "Golpang_code": "",
    "address": "충청북도 진천군 백곡면 배티로 818-105",
    "lat": 36.921411,
    "lng": 127.361491
  },
  {
    "name": "히든밸리",
    "seq": "4",
    "Golpang_code": "",
    "address": "충청북도 진천군 백곡면 소토골길 61",
    "lat": 36.937305,
    "lng": 127.305464
  },
  {
    "name": "시그너스",
    "seq": "169",
    "Golpang_code": "100",
    "address": "충청북도 충주시 앙성면 중방곡길 57-44",
    "lat": 37.067413,
    "lng": 127.613609
  },
  {
    "name": "일레븐",
    "seq": "114058",
    "Golpang_code": "81",
    "address": "충청북도 충주시 앙성면 본평리 산43-1",
    "lat": 37.066152,
    "lng": 127.600915
  },
  {
    "name": "모나크",
    "seq": "114196",
    "Golpang_code": "98",
    "address": "충청북도 음성군 금왕읍 대금로 1851번길 3-14",
    "lat": 36.991832,
    "lng": 127.578989
  },
  {
    "name": "올데이",
    "seq": "114057",
    "Golpang_code": "80",
    "address": "충청북도 충주시 앙성면 비내길 189",
    "lat": 37.043987,
    "lng": 127.611098
  },
  {
    "name": "세일",
    "seq": "515",
    "Golpang_code": "63",
    "address": "충청북도 충주시 신니면 동락길 207",
    "lat": 37.056230,
    "lng": 127.676837
  },
  {
    "name": "동촌",
    "seq": "487",
    "Golpang_code": "12",
    "address": "충청북도 충주시 노은면 감노로 1327",
    "lat": 37.050675,
    "lng": 127.816695
  },
  {
    "name": "카스카디아",
    "seq": "114370",
    "Golpang_code": "",
    "address": "강원도 홍천군 북방면 팔봉산로 1759",
    "lat": 37.743192,
    "lng": 127.713801
  },
  {
    "name": "남춘천",
    "seq": "392",
    "Golpang_code": "",
    "address": "강원도 춘천시 신동면 오봉길 78",
    "lat": 37.778708,
    "lng": 127.616200
  },
  {
    "name": "라비에벨",
    "seq": "422",
    "Golpang_code": "",
    "address": "강원도 춘천시 동산면 종자리로 436",
    "lat": 37.867825,
    "lng": 127.532915
  },
  {
    "name": "월송리",
    "seq": "582",
    "Golpang_code": "",
    "address": "강원도 원주시 지정면 오크밸리2길 250",
    "lat": 37.413341,
    "lng": 127.812946
  },
  {
    "name": "라데나",
    "seq": "249",
    "Golpang_code": "",
    "address": "강원도 춘천시 신동면 칠전동길 72",
    "lat": 37.888968,
    "lng": 127.652491
  },
  {
    "name": "벨라스톤",
    "seq": "391",
    "Golpang_code": "501",
    "address": "강원도 횡성군 서원면 옥계9길 124",
    "lat": 37.533026,
    "lng": 127.916735
  },
  {
    "name": "알프스대영",
    "seq": "64",
    "Golpang_code": "506",
    "address": "강원도 횡성군 우천면 한우로 1295",
    "lat": 37.477097,
    "lng": 127.950613
  },
  {
    "name": "오로라",
    "seq": "114241",
    "Golpang_code": "531",
    "address": "강원도 원주시 신림면 구학산로 1520",
    "lat": 37.325622,
    "lng": 128.089667
  },
  {
    "name": "벨라45",
    "seq": "114311",
    "Golpang_code": "533",
    "address": "강원도 횡성군 서원면 서원남로 80",
    "lat": 37.541668,
    "lng": 127.899553
  },
  {
    "name": "센추리",
    "seq": "183",
    "Golpang_code": "511",
    "address": "강원도 원주시 문막읍 궁말길 193",
    "lat": 37.355857,
    "lng": 127.822549
  },
  {
    "name": "용평",
    "seq": "",
    "Golpang_code": "532",
    "address": "강원도 평창군 대관령면 올림픽로 715",
    "lat": 37.658980,
    "lng": 128.704721
  }
]
